{
    "Afghanistan": {
        "All": {
            "confirmed": 143183,
            "recovered": 82586,
            "deaths": 6325,
            "country": "Afghanistan",
            "population": 35530081,
            "sq_km_area": 652090,
            "life_expectancy": "45.9",
            "elevation_in_meters": null,
            "continent": "Asia",
            "abbreviation": "AF",
            "location": "Southern and Central Asia",
            "iso": 4,
            "capital_city": "Kabul",
            "lat": "33.93911",
            "long": "67.709953",
            "updated": "2021/07/23 11:21:35+00"
        }
    },
    "Albania": {
        "All": {
            "confirmed": 132797,
            "recovered": 130109,
            "deaths": 2456,
            "country": "Albania",
            "population": 2930187,
            "sq_km_area": 28748,
            "life_expectancy": "71.6",
            "elevation_in_meters": null,
            "continent": "Europe",
            "abbreviation": "AL",
            "location": "Southern Europe",
            "iso": 8,
            "capital_city": "Tirana",
            "lat": "41.1533",
            "long": "20.1683",
            "updated": "2021/07/23 11:21:35+00"
        }
    },
    "Algeria": {
        "All": {
            "confirmed": 158213,
            "recovered": 108537,
            "deaths": 4008,
            "country": "Algeria",
            "population": 41318142,
            "sq_km_area": 2381741,
            "life_expectancy": "69.7",
            "elevation_in_meters": 800,
            "continent": "Africa",
            "abbreviation": "DZ",
            "location": "Northern Africa",
            "iso": 12,
            "capital_city": "Alger",
            "lat": "28.0339",
            "long": "1.6596",
            "updated": "2021/07/23 11:21:35+00"
        }
    },
    "Andorra": {
        "All": {
            "confirmed": 14464,
            "recovered": 13988,
            "deaths": 127,
            "country": "Andorra",
            "population": 76965,
            "sq_km_area": 468,
            "life_expectancy": "83.5",
            "elevation_in_meters": "1,996",
            "continent": "Europe",
            "abbreviation": "AD",
            "location": "Southern Europe",
            "iso": 20,
            "capital_city": "Andorra la Vella",
            "lat": "42.5063",
            "long": "1.5218",
            "updated": "2021/07/23 11:21:35+00"
        }
    },
    "Angola": {
        "All": {
            "confirmed": 41405,
            "recovered": 35082,
            "deaths": 977,
            "country": "Angola",
            "population": 29784193,
            "sq_km_area": 1246700,
            "life_expectancy": "38.3",
            "elevation_in_meters": "1,112",
            "continent": "Africa",
            "abbreviation": "AO",
            "location": "Central Africa",
            "iso": 24,
            "capital_city": "Luanda",
            "lat": "-11.2027",
            "long": "17.8739",
            "updated": "2021/07/23 11:21:35+00"
        }
    },
    "Antigua and Barbuda": {
        "All": {
            "confirmed": 1277,
            "recovered": 1225,
            "deaths": 42,
            "country": "Antigua and Barbuda",
            "population": 102012,
            "sq_km_area": 442,
            "life_expectancy": "70.5",
            "elevation_in_meters": null,
            "continent": "North America",
            "abbreviation": "AG",
            "location": "Caribbean",
            "iso": 28,
            "capital_city": "Saint John's",
            "lat": "17.0608",
            "long": "-61.7964",
            "updated": "2021/07/23 11:21:35+00"
        }
    },
    "Argentina": {
        "All": {
            "confirmed": 4812351,
            "recovered": 4447953,
            "deaths": 103074,
            "country": "Argentina",
            "population": 44271041,
            "sq_km_area": 2780400,
            "life_expectancy": "75.1",
            "elevation_in_meters": 595,
            "continent": "South America",
            "abbreviation": "AR",
            "location": "South America",
            "iso": 32,
            "capital_city": "Buenos Aires",
            "lat": "-38.4161",
            "long": "-63.6167",
            "updated": "2021/07/23 11:21:35+00"
        }
    },
    "Armenia": {
        "All": {
            "confirmed": 228382,
            "recovered": 218796,
            "deaths": 4579,
            "country": "Armenia",
            "population": 2930450,
            "sq_km_area": 29800,
            "life_expectancy": "66.4",
            "elevation_in_meters": "1,792",
            "continent": "Asia",
            "abbreviation": "AM",
            "location": "Middle East",
            "iso": 51,
            "capital_city": "Yerevan",
            "lat": "40.0691",
            "long": "45.0382",
            "updated": "2021/07/23 11:21:35+00"
        }
    },
    "Australia": {
        "All": {
            "confirmed": 32589,
            "recovered": 23985,
            "deaths": 916,
            "country": "Australia",
            "population": 24450561,
            "sq_km_area": 7741220,
            "life_expectancy": "79.8",
            "elevation_in_meters": 330,
            "continent": "Oceania",
            "abbreviation": "AU",
            "location": "Australia and New Zealand",
            "iso": 36,
            "capital_city": "Canberra"
        },
        "Australian Capital Territory": {
            "lat": "-35.4735",
            "long": "149.0124",
            "confirmed": 124,
            "recovered": 121,
            "deaths": 3,
            "updated": "2021/07/23 11:21:35+00"
        },
        "New South Wales": {
            "lat": "-33.8688",
            "long": "151.2093",
            "confirmed": 7498,
            "recovered": 0,
            "deaths": 60,
            "updated": "2021/07/23 11:21:35+00"
        },
        "Northern Territory": {
            "lat": "-12.4634",
            "long": "130.8456",
            "confirmed": 191,
            "recovered": 188,
            "deaths": 0,
            "updated": "2021/07/23 11:21:35+00"
        },
        "Queensland": {
            "lat": "-27.4698",
            "long": "153.0251",
            "confirmed": 1764,
            "recovered": 1707,
            "deaths": 7,
            "updated": "2021/07/23 11:21:35+00"
        },
        "South Australia": {
            "lat": "-34.9285",
            "long": "138.6007",
            "confirmed": 851,
            "recovered": 822,
            "deaths": 4,
            "updated": "2021/07/23 11:21:35+00"
        },
        "Tasmania": {
            "lat": "-42.8821",
            "long": "147.3272",
            "confirmed": 234,
            "recovered": 221,
            "deaths": 13,
            "updated": "2021/07/23 11:21:35+00"
        },
        "Victoria": {
            "lat": "-37.8136",
            "long": "144.9631",
            "confirmed": 20879,
            "recovered": 19901,
            "deaths": 820,
            "updated": "2021/07/23 11:21:35+00"
        },
        "Western Australia": {
            "lat": "-31.9505",
            "long": "115.8605",
            "confirmed": 1048,
            "recovered": 1025,
            "deaths": 9,
            "updated": "2021/07/23 11:21:35+00"
        }
    },
    "Austria": {
        "All": {
            "confirmed": 655197,
            "recovered": 640202,
            "deaths": 10730,
            "country": "Austria",
            "population": 8735453,
            "sq_km_area": 83859,
            "life_expectancy": "77.7",
            "elevation_in_meters": 910,
            "continent": "Europe",
            "abbreviation": "AT",
            "location": "Western Europe",
            "iso": 40,
            "capital_city": "Wien",
            "lat": "47.5162",
            "long": "14.5501",
            "updated": "2021/07/23 11:21:35+00"
        }
    },
    "Azerbaijan": {
        "All": {
            "confirmed": 339274,
            "recovered": 331629,
            "deaths": 4999,
            "country": "Azerbaijan",
            "population": 9827589,
            "sq_km_area": 86600,
            "life_expectancy": "62.9",
            "elevation_in_meters": 384,
            "continent": "Asia",
            "abbreviation": "AZ",
            "location": "Middle East",
            "iso": 31,
            "capital_city": "Baku",
            "lat": "40.1431",
            "long": "47.5769",
            "updated": "2021/07/23 11:21:35+00"
        }
    },
    "Bahamas": {
        "All": {
            "confirmed": 13781,
            "recovered": 12158,
            "deaths": 274,
            "country": "Bahamas",
            "population": 395361,
            "sq_km_area": 13878,
            "life_expectancy": "71.1",
            "elevation_in_meters": null,
            "continent": "North America",
            "abbreviation": "BS",
            "location": "Caribbean",
            "iso": 44,
            "capital_city": "Nassau",
            "lat": "25.025885",
            "long": "-78.035889",
            "updated": "2021/07/23 11:21:35+00"
        }
    },
    "Bahrain": {
        "All": {
            "confirmed": 268225,
            "recovered": 266036,
            "deaths": 1381,
            "country": "Bahrain",
            "population": 1492584,
            "sq_km_area": 694,
            "life_expectancy": 73,
            "elevation_in_meters": null,
            "continent": "Asia",
            "abbreviation": "BH",
            "location": "Middle East",
            "iso": 48,
            "capital_city": "al-Manama",
            "lat": "26.0275",
            "long": "50.55",
            "updated": "2021/07/23 11:21:35+00"
        }
    },
    "Bangladesh": {
        "All": {
            "confirmed": 1140200,
            "recovered": 969610,
            "deaths": 18685,
            "country": "Bangladesh",
            "population": 164669751,
            "sq_km_area": 143998,
            "life_expectancy": "60.2",
            "elevation_in_meters": 85,
            "continent": "Asia",
            "abbreviation": "BD",
            "location": "Southern and Central Asia",
            "iso": 50,
            "capital_city": "Dhaka",
            "lat": "23.685",
            "long": "90.3563",
            "updated": "2021/07/23 11:21:35+00"
        }
    },
    "Barbados": {
        "All": {
            "confirmed": 4319,
            "recovered": 4098,
            "deaths": 48,
            "country": "Barbados",
            "population": 285719,
            "sq_km_area": 430,
            "life_expectancy": 73,
            "elevation_in_meters": null,
            "continent": "North America",
            "abbreviation": "BB",
            "location": "Caribbean",
            "iso": 52,
            "capital_city": "Bridgetown",
            "lat": "13.1939",
            "long": "-59.5432",
            "updated": "2021/07/23 11:21:35+00"
        }
    },
    "Belarus": {
        "All": {
            "confirmed": 437664,
            "recovered": 431489,
            "deaths": 3365,
            "country": "Belarus",
            "population": 9468338,
            "sq_km_area": 207600,
            "life_expectancy": 68,
            "elevation_in_meters": 160,
            "continent": "Europe",
            "abbreviation": "BY",
            "location": "Eastern Europe",
            "iso": 112,
            "capital_city": "Minsk",
            "lat": "53.7098",
            "long": "27.9534",
            "updated": "2021/07/23 11:21:35+00"
        }
    },
    "Belgium": {
        "All": {
            "confirmed": 1112161,
            "recovered": 0,
            "deaths": 25217,
            "country": "Belgium",
            "population": 11429336,
            "sq_km_area": 30518,
            "life_expectancy": "77.8",
            "elevation_in_meters": 181,
            "continent": "Europe",
            "abbreviation": "BE",
            "location": "Western Europe",
            "iso": 56,
            "capital_city": "Bruxelles [Brussel]"
        },
        "Antwerp": {
            "lat": "51.2195",
            "long": "4.4024",
            "confirmed": 145793,
            "recovered": 0,
            "deaths": 0,
            "updated": "2021/07/23 11:21:35+00"
        },
        "Brussels": {
            "lat": "50.8503",
            "long": "4.3517",
            "confirmed": 137724,
            "recovered": 0,
            "deaths": 0,
            "updated": "2021/07/23 11:21:35+00"
        },
        "East Flanders": {
            "lat": "51.0362",
            "long": "3.7373",
            "confirmed": 128023,
            "recovered": 0,
            "deaths": 0,
            "updated": "2021/07/23 11:21:35+00"
        },
        "Flemish Brabant": {
            "lat": "50.9167",
            "long": "4.5833",
            "confirmed": 85963,
            "recovered": 0,
            "deaths": 0,
            "updated": "2021/07/23 11:21:35+00"
        },
        "Hainaut": {
            "lat": "50.5257",
            "long": "4.0621",
            "confirmed": 162407,
            "recovered": 0,
            "deaths": 0,
            "updated": "2021/07/23 11:21:35+00"
        },
        "Liege": {
            "lat": "50.4496",
            "long": "5.8492",
            "confirmed": 133066,
            "recovered": 0,
            "deaths": 0,
            "updated": "2021/07/23 11:21:35+00"
        },
        "Limburg": {
            "lat": "50.9739",
            "long": "5.342",
            "confirmed": 62625,
            "recovered": 0,
            "deaths": 0,
            "updated": "2021/07/23 11:21:35+00"
        },
        "Luxembourg": {
            "lat": "50.0547",
            "long": "5.4677",
            "confirmed": 31525,
            "recovered": 0,
            "deaths": 0,
            "updated": "2021/07/23 11:21:35+00"
        },
        "Namur": {
            "lat": "50.331",
            "long": "4.8221",
            "confirmed": 60353,
            "recovered": 0,
            "deaths": 0,
            "updated": "2021/07/23 11:21:35+00"
        },
        "Unknown": {
            "lat": "",
            "long": "",
            "confirmed": 21626,
            "recovered": 0,
            "deaths": 25217,
            "updated": "2021/07/23 11:21:35+00"
        },
        "Walloon Brabant": {
            "lat": "50.4",
            "long": "4.35",
            "confirmed": 42894,
            "recovered": 0,
            "deaths": 0,
            "updated": "2021/07/23 11:21:35+00"
        },
        "West Flanders": {
            "lat": "51.0536",
            "long": "3.1458",
            "confirmed": 100162,
            "recovered": 0,
            "deaths": 0,
            "updated": "2021/07/23 11:21:35+00"
        }
    },
    "Belize": {
        "All": {
            "confirmed": 13893,
            "recovered": 13201,
            "deaths": 332,
            "country": "Belize",
            "population": 374681,
            "sq_km_area": 22696,
            "life_expectancy": "70.9",
            "elevation_in_meters": 173,
            "continent": "North America",
            "abbreviation": "BZ",
            "location": "Central America",
            "iso": 84,
            "capital_city": "Belmopan",
            "lat": "17.1899",
            "long": "-88.4976",
            "updated": "2021/07/23 11:21:35+00"
        }
    },
    "Benin": {
        "All": {
            "confirmed": 8324,
            "recovered": 8125,
            "deaths": 107,
            "country": "Benin",
            "population": 11175692,
            "sq_km_area": 112622,
            "life_expectancy": "50.2",
            "elevation_in_meters": 273,
            "continent": "Africa",
            "abbreviation": "BJ",
            "location": "Western Africa",
            "iso": 204,
            "capital_city": "Porto-Novo",
            "lat": "9.3077",
            "long": "2.3158",
            "updated": "2021/07/23 11:21:35+00"
        }
    },
    "Bhutan": {
        "All": {
            "confirmed": 2458,
            "recovered": 2181,
            "deaths": 2,
            "country": "Bhutan",
            "population": 807610,
            "sq_km_area": 47000,
            "life_expectancy": "52.4",
            "elevation_in_meters": "3,280",
            "continent": "Asia",
            "abbreviation": "BT",
            "location": "Southern and Central Asia",
            "iso": 64,
            "capital_city": "Thimphu",
            "lat": "27.5142",
            "long": "90.4336",
            "updated": "2021/07/23 11:21:35+00"
        }
    },
    "Bolivia": {
        "All": {
            "confirmed": 466318,
            "recovered": 396914,
            "deaths": 17576,
            "country": "Bolivia",
            "population": 11051600,
            "sq_km_area": 1098581,
            "life_expectancy": "63.7",
            "elevation_in_meters": "1,192",
            "continent": "South America",
            "abbreviation": "BO",
            "location": "South America",
            "iso": 68,
            "capital_city": "La Paz",
            "lat": "-16.2902",
            "long": "-63.5887",
            "updated": "2021/07/23 11:21:35+00"
        }
    },
    "Bosnia and Herzegovina": {
        "All": {
            "confirmed": 205384,
            "recovered": 188330,
            "deaths": 9673,
            "country": "Bosnia and Herzegovina",
            "population": 3507017,
            "sq_km_area": 51197,
            "life_expectancy": "71.5",
            "elevation_in_meters": 500,
            "continent": "Europe",
            "abbreviation": "BA",
            "location": "Southern Europe",
            "iso": 70,
            "capital_city": "Sarajevo",
            "lat": "43.9159",
            "long": "17.6791",
            "updated": "2021/07/23 11:21:35+00"
        }
    },
    "Botswana": {
        "All": {
            "confirmed": 97657,
            "recovered": 84189,
            "deaths": 1375,
            "country": "Botswana",
            "population": 2291661,
            "sq_km_area": 581730,
            "life_expectancy": "39.3",
            "elevation_in_meters": "1,013",
            "continent": "Africa",
            "abbreviation": "BW",
            "location": "Southern Africa",
            "iso": 72,
            "capital_city": "Gaborone",
            "lat": "-22.3285",
            "long": "24.6849",
            "updated": "2021/07/23 11:21:35+00"
        }
    },
    "Brazil": {
        "All": {
            "confirmed": 19523711,
            "recovered": 17470332,
            "deaths": 547016,
            "country": "Brazil",
            "population": 209288278,
            "sq_km_area": 8547403,
            "life_expectancy": "62.9",
            "elevation_in_meters": 320,
            "continent": "South America",
            "abbreviation": "BR",
            "location": "South America",
            "iso": 76,
            "capital_city": "Bras\u00edlia"
        },
        "Acre": {
            "lat": "-9.0238",
            "long": "-70.812",
            "confirmed": 86844,
            "recovered": 82929,
            "deaths": 1793,
            "updated": "2021/07/23 11:21:35+00"
        },
        "Alagoas": {
            "lat": "-9.5713",
            "long": "-36.782",
            "confirmed": 227121,
            "recovered": 218807,
            "deaths": 5698,
            "updated": "2021/07/23 11:21:35+00"
        },
        "Amapa": {
            "lat": "0.902",
            "long": "-52.003",
            "confirmed": 120403,
            "recovered": 100791,
            "deaths": 1888,
            "updated": "2021/07/23 11:21:35+00"
        },
        "Amazonas": {
            "lat": "-3.4168",
            "long": "-65.8561",
            "confirmed": 413146,
            "recovered": 351713,
            "deaths": 13462,
            "updated": "2021/07/23 11:21:35+00"
        },
        "Bahia": {
            "lat": "-12.5797",
            "long": "-41.7007",
            "confirmed": 1180732,
            "recovered": 1145914,
            "deaths": 25410,
            "updated": "2021/07/23 11:21:35+00"
        },
        "Ceara": {
            "lat": "-5.4984",
            "long": "-39.3206",
            "confirmed": 911021,
            "recovered": 638550,
            "deaths": 23287,
            "updated": "2021/07/23 11:21:35+00"
        },
        "Distrito Federal": {
            "lat": "-15.7998",
            "long": "-47.8645",
            "confirmed": 443797,
            "recovered": 426962,
            "deaths": 9526,
            "updated": "2021/07/23 11:21:35+00"
        },
        "Espirito Santo": {
            "lat": "-19.1834",
            "long": "-40.3089",
            "confirmed": 537509,
            "recovered": 514529,
            "deaths": 11787,
            "updated": "2021/07/23 11:21:35+00"
        },
        "Goias": {
            "lat": "-15.827",
            "long": "-49.8362",
            "confirmed": 719410,
            "recovered": 681595,
            "deaths": 20322,
            "updated": "2021/07/23 11:21:35+00"
        },
        "Maranhao": {
            "lat": "-4.9609",
            "long": "-45.2744",
            "confirmed": 332315,
            "recovered": 285983,
            "deaths": 9510,
            "updated": "2021/07/23 11:21:35+00"
        },
        "Mato Grosso": {
            "lat": "-12.6819",
            "long": "-56.9211",
            "confirmed": 476808,
            "recovered": 449748,
            "deaths": 12357,
            "updated": "2021/07/23 11:21:35+00"
        },
        "Mato Grosso do Sul": {
            "lat": "-20.7722",
            "long": "-54.7852",
            "confirmed": 350611,
            "recovered": 333199,
            "deaths": 8779,
            "updated": "2021/07/23 11:21:35+00"
        },
        "Minas Gerais": {
            "lat": "-18.5122",
            "long": "-44.555",
            "confirmed": 1921230,
            "recovered": 1811490,
            "deaths": 49377,
            "updated": "2021/07/23 11:21:35+00"
        },
        "Para": {
            "lat": "-1.9981",
            "long": "-54.9306",
            "confirmed": 568161,
            "recovered": 529988,
            "deaths": 15914,
            "updated": "2021/07/23 11:21:35+00"
        },
        "Paraiba": {
            "lat": "-7.24",
            "long": "-36.782",
            "confirmed": 416261,
            "recovered": 288893,
            "deaths": 8915,
            "updated": "2021/07/23 11:21:35+00"
        },
        "Parana": {
            "lat": "-25.2521",
            "long": "-52.0215",
            "confirmed": 1355387,
            "recovered": 979947,
            "deaths": 34087,
            "updated": "2021/07/23 11:21:35+00"
        },
        "Pernambuco": {
            "lat": "-8.8137",
            "long": "-36.9541",
            "confirmed": 582849,
            "recovered": 500584,
            "deaths": 18502,
            "updated": "2021/07/23 11:21:35+00"
        },
        "Piaui": {
            "lat": "-7.7183",
            "long": "-42.7289",
            "confirmed": 306574,
            "recovered": 298193,
            "deaths": 6770,
            "updated": "2021/07/23 11:21:35+00"
        },
        "Rio Grande do Norte": {
            "lat": "-5.4026",
            "long": "-36.9541",
            "confirmed": 355349,
            "recovered": 150649,
            "deaths": 7039,
            "updated": "2021/07/23 11:21:35+00"
        },
        "Rio Grande do Sul": {
            "lat": "-30.0346",
            "long": "-51.2177",
            "confirmed": 1279550,
            "recovered": 1238177,
            "deaths": 32910,
            "updated": "2021/07/23 11:21:35+00"
        },
        "Rio de Janeiro": {
            "lat": "-22.9068",
            "long": "-43.1729",
            "confirmed": 1008623,
            "recovered": 940297,
            "deaths": 58036,
            "updated": "2021/07/23 11:21:35+00"
        },
        "Rondonia": {
            "lat": "-11.5057",
            "long": "-63.5806",
            "confirmed": 255454,
            "recovered": 241114,
            "deaths": 6326,
            "updated": "2021/07/23 11:21:35+00"
        },
        "Roraima": {
            "lat": "-2.7376",
            "long": "-62.0751",
            "confirmed": 118036,
            "recovered": 111193,
            "deaths": 1826,
            "updated": "2021/07/23 11:21:35+00"
        },
        "Santa Catarina": {
            "lat": "-27.2423",
            "long": "-50.2189",
            "confirmed": 1098579,
            "recovered": 1053386,
            "deaths": 17707,
            "updated": "2021/07/23 11:21:35+00"
        },
        "Sao Paulo": {
            "lat": "-23.5505",
            "long": "-46.6333",
            "confirmed": 3979102,
            "recovered": 3649393,
            "deaths": 136466,
            "updated": "2021/07/23 11:21:35+00"
        },
        "Sergipe": {
            "lat": "-10.5741",
            "long": "-37.3857",
            "confirmed": 272220,
            "recovered": 256875,
            "deaths": 5882,
            "updated": "2021/07/23 11:21:35+00"
        },
        "Tocantins": {
            "lat": "-10.1753",
            "long": "-48.2982",
            "confirmed": 206619,
            "recovered": 189433,
            "deaths": 3440,
            "updated": "2021/07/23 11:21:35+00"
        }
    },
    "Brunei": {
        "All": {
            "confirmed": 311,
            "recovered": 269,
            "deaths": 3,
            "country": "Brunei",
            "population": 428697,
            "sq_km_area": 5765,
            "life_expectancy": "73.6",
            "elevation_in_meters": 478,
            "continent": "Asia",
            "abbreviation": "BN",
            "location": "Southeast Asia",
            "iso": 96,
            "capital_city": "Bandar Seri Begawan",
            "lat": "4.5353",
            "long": "114.7277",
            "updated": "2021/07/23 11:21:35+00"
        }
    },
    "Bulgaria": {
        "All": {
            "confirmed": 423440,
            "recovered": 397900,
            "deaths": 18189,
            "country": "Bulgaria",
            "population": 7084571,
            "sq_km_area": 110994,
            "life_expectancy": "70.9",
            "elevation_in_meters": 472,
            "continent": "Europe",
            "abbreviation": "BG",
            "location": "Eastern Europe",
            "iso": 100,
            "capital_city": "Sofia",
            "lat": "42.7339",
            "long": "25.4858",
            "updated": "2021/07/23 11:21:35+00"
        }
    },
    "Burkina Faso": {
        "All": {
            "confirmed": 13537,
            "recovered": 13350,
            "deaths": 169,
            "country": "Burkina Faso",
            "population": 19193382,
            "sq_km_area": 274000,
            "life_expectancy": "46.7",
            "elevation_in_meters": 297,
            "continent": "Africa",
            "abbreviation": "BF",
            "location": "Western Africa",
            "iso": 854,
            "capital_city": "Ouagadougou",
            "lat": "12.2383",
            "long": "-1.5616",
            "updated": "2021/07/23 11:21:35+00"
        }
    },
    "Burma": {
        "All": {
            "confirmed": 253364,
            "recovered": 173926,
            "deaths": 6133,
            "lat": "21.9162",
            "long": "95.956",
            "updated": "2021/07/23 11:21:35+00"
        }
    },
    "Burundi": {
        "All": {
            "confirmed": 6018,
            "recovered": 773,
            "deaths": 8,
            "country": "Burundi",
            "population": 10864245,
            "sq_km_area": 27834,
            "life_expectancy": "46.2",
            "elevation_in_meters": "1,504",
            "continent": "Africa",
            "abbreviation": "BI",
            "location": "Eastern Africa",
            "iso": 108,
            "capital_city": "Bujumbura",
            "lat": "-3.3731",
            "long": "29.9189",
            "updated": "2021/07/23 11:21:35+00"
        }
    },
    "Cabo Verde": {
        "All": {
            "confirmed": 33452,
            "recovered": 32617,
            "deaths": 297,
            "lat": "16.5388",
            "long": "-23.0418",
            "updated": "2021/07/23 11:21:35+00"
        }
    },
    "Cambodia": {
        "All": {
            "confirmed": 71244,
            "recovered": 63474,
            "deaths": 1222,
            "country": "Cambodia",
            "population": 16005373,
            "sq_km_area": 181035,
            "life_expectancy": "56.5",
            "elevation_in_meters": 126,
            "continent": "Asia",
            "abbreviation": "KH",
            "location": "Southeast Asia",
            "iso": 116,
            "capital_city": "Phnom Penh",
            "lat": "11.55",
            "long": "104.9167",
            "updated": "2021/07/23 11:21:35+00"
        }
    },
    "Cameroon": {
        "All": {
            "confirmed": 81871,
            "recovered": 35261,
            "deaths": 1332,
            "country": "Cameroon",
            "population": 24053727,
            "sq_km_area": 475442,
            "life_expectancy": "54.8",
            "elevation_in_meters": 667,
            "continent": "Africa",
            "abbreviation": "CM",
            "location": "Central Africa",
            "iso": 120,
            "capital_city": "Yaound",
            "lat": "3.848",
            "long": "11.5021",
            "updated": "2021/07/23 11:21:35+00"
        }
    },
    "Canada": {
        "All": {
            "confirmed": 1432606,
            "recovered": 1401177,
            "deaths": 26484,
            "country": "Canada",
            "population": 36624199,
            "sq_km_area": 9970610,
            "life_expectancy": "79.4",
            "elevation_in_meters": 487,
            "continent": "North America",
            "abbreviation": "CA",
            "location": "North America",
            "iso": 124,
            "capital_city": "Ottawa"
        },
        "Alberta": {
            "lat": "53.9333",
            "long": "-116.5765",
            "confirmed": 233062,
            "recovered": 230066,
            "deaths": 2320,
            "updated": "2021/07/23 11:21:35+00"
        },
        "British Columbia": {
            "lat": "53.7267",
            "long": "-127.6476",
            "confirmed": 148730,
            "recovered": 146178,
            "deaths": 1763,
            "updated": "2021/07/23 11:21:35+00"
        },
        "Diamond Princess": {
            "lat": "",
            "long": "",
            "confirmed": 0,
            "recovered": 0,
            "deaths": 1,
            "updated": "2020/12/21 13:27:30+00"
        },
        "Grand Princess": {
            "lat": "",
            "long": "",
            "confirmed": 13,
            "recovered": 13,
            "deaths": 0,
            "updated": "2020/12/21 13:27:30+00"
        },
        "Manitoba": {
            "lat": "53.7609",
            "long": "-98.8139",
            "confirmed": 57322,
            "recovered": 55618,
            "deaths": 1167,
            "updated": "2021/07/23 11:21:35+00"
        },
        "New Brunswick": {
            "lat": "46.5653",
            "long": "-66.4619",
            "confirmed": 2347,
            "recovered": 2292,
            "deaths": 46,
            "updated": "2021/07/23 11:21:35+00"
        },
        "Newfoundland and Labrador": {
            "lat": "53.1355",
            "long": "-57.6604",
            "confirmed": 1437,
            "recovered": 1377,
            "deaths": 7,
            "updated": "2021/07/23 11:21:35+00"
        },
        "Northwest Territories": {
            "lat": "64.8255",
            "long": "-124.8457",
            "confirmed": 128,
            "recovered": 128,
            "deaths": 0,
            "updated": "2021/07/23 11:21:35+00"
        },
        "Nova Scotia": {
            "lat": "44.682",
            "long": "-63.7443",
            "confirmed": 5880,
            "recovered": 5776,
            "deaths": 93,
            "updated": "2021/07/23 11:21:35+00"
        },
        "Nunavut": {
            "lat": "70.2998",
            "long": "-83.1076",
            "confirmed": 657,
            "recovered": 653,
            "deaths": 4,
            "updated": "2021/07/23 11:21:35+00"
        },
        "Ontario": {
            "lat": "51.2538",
            "long": "-85.3232",
            "confirmed": 556282,
            "recovered": 545662,
            "deaths": 9264,
            "updated": "2021/07/23 11:21:35+00"
        },
        "Prince Edward Island": {
            "lat": "46.5107",
            "long": "-63.4168",
            "confirmed": 208,
            "recovered": 208,
            "deaths": 0,
            "updated": "2021/07/23 11:21:35+00"
        },
        "Quebec": {
            "lat": "52.9399",
            "long": "-73.5491",
            "confirmed": 376429,
            "recovered": 364033,
            "deaths": 11238,
            "updated": "2021/07/23 11:21:35+00"
        },
        "Repatriated Travellers": {
            "lat": "",
            "long": "",
            "confirmed": 13,
            "recovered": 13,
            "deaths": 0,
            "updated": "2021/07/23 11:21:35+00"
        },
        "Saskatchewan": {
            "lat": "52.9399",
            "long": "-106.4509",
            "confirmed": 49556,
            "recovered": 48694,
            "deaths": 575,
            "updated": "2021/07/23 11:21:35+00"
        },
        "Yukon": {
            "lat": "64.2823",
            "long": "-135",
            "confirmed": 542,
            "recovered": 466,
            "deaths": 6,
            "updated": "2021/07/23 11:21:35+00"
        }
    },
    "Central African Republic": {
        "All": {
            "confirmed": 7147,
            "recovered": 6859,
            "deaths": 98,
            "country": "Central African Republic",
            "population": 4659080,
            "sq_km_area": 622984,
            "life_expectancy": 44,
            "elevation_in_meters": 635,
            "continent": "Africa",
            "abbreviation": "CF",
            "location": "Central Africa",
            "iso": 140,
            "capital_city": "Bangui",
            "lat": "6.6111",
            "long": "20.9394",
            "updated": "2021/07/23 11:21:35+00"
        }
    },
    "Chad": {
        "All": {
            "confirmed": 4965,
            "recovered": 4777,
            "deaths": 174,
            "country": "Chad",
            "population": 14899994,
            "sq_km_area": 1284000,
            "life_expectancy": "50.5",
            "elevation_in_meters": 543,
            "continent": "Africa",
            "abbreviation": "TD",
            "location": "Central Africa",
            "iso": 148,
            "capital_city": "N'Djam",
            "lat": "15.4542",
            "long": "18.7322",
            "updated": "2021/07/23 11:21:35+00"
        }
    },
    "Chile": {
        "All": {
            "confirmed": 1604713,
            "recovered": 1558669,
            "deaths": 34792,
            "country": "Chile",
            "population": 18054726,
            "sq_km_area": 756626,
            "life_expectancy": "75.7",
            "elevation_in_meters": "1,871",
            "continent": "South America",
            "abbreviation": "CL",
            "location": "South America",
            "iso": 152,
            "capital_city": "Santiago de Chile"
        },
        "Antofagasta": {
            "lat": "-23.6509",
            "long": "-70.3975",
            "confirmed": 59379,
            "recovered": 57830,
            "deaths": 1177,
            "updated": "2021/07/23 11:21:35+00"
        },
        "Araucania": {
            "lat": "-38.9489",
            "long": "-72.3311",
            "confirmed": 96015,
            "recovered": 94016,
            "deaths": 1344,
            "updated": "2021/07/23 11:21:35+00"
        },
        "Arica y Parinacota": {
            "lat": "-18.594",
            "long": "-69.4785",
            "confirmed": 26177,
            "recovered": 25458,
            "deaths": 500,
            "updated": "2021/07/23 11:21:35+00"
        },
        "Atacama": {
            "lat": "-27.5661",
            "long": "-70.0503",
            "confirmed": 26455,
            "recovered": 25665,
            "deaths": 306,
            "updated": "2021/07/23 11:21:35+00"
        },
        "Aysen": {
            "lat": "-45.9864",
            "long": "-73.7669",
            "confirmed": 8033,
            "recovered": 7918,
            "deaths": 69,
            "updated": "2021/07/23 11:21:35+00"
        },
        "Biobio": {
            "lat": "-37.4464",
            "long": "-72.1416",
            "confirmed": 147487,
            "recovered": 143989,
            "deaths": 2462,
            "updated": "2021/07/23 11:21:35+00"
        },
        "Coquimbo": {
            "lat": "-29.959",
            "long": "-71.3389",
            "confirmed": 47181,
            "recovered": 45881,
            "deaths": 907,
            "updated": "2021/07/23 11:21:35+00"
        },
        "Los Lagos": {
            "lat": "-41.9198",
            "long": "-72.1416",
            "confirmed": 86909,
            "recovered": 85108,
            "deaths": 1302,
            "updated": "2021/07/23 11:21:35+00"
        },
        "Los Rios": {
            "lat": "-40.231",
            "long": "-72.3311",
            "confirmed": 47860,
            "recovered": 46681,
            "deaths": 601,
            "updated": "2021/07/23 11:21:35+00"
        },
        "Magallanes": {
            "lat": "-52.368",
            "long": "-70.9863",
            "confirmed": 29094,
            "recovered": 28564,
            "deaths": 474,
            "updated": "2021/07/23 11:21:35+00"
        },
        "Maule": {
            "lat": "-35.5183",
            "long": "-71.6885",
            "confirmed": 98965,
            "recovered": 96539,
            "deaths": 1633,
            "updated": "2021/07/23 11:21:35+00"
        },
        "Metropolitana": {
            "lat": "-33.4376",
            "long": "-70.6505",
            "confirmed": 669511,
            "recovered": 647071,
            "deaths": 18017,
            "updated": "2021/07/23 11:21:35+00"
        },
        "Nuble": {
            "lat": "-36.7226",
            "long": "-71.7622",
            "confirmed": 35028,
            "recovered": 34206,
            "deaths": 611,
            "updated": "2021/07/23 11:21:35+00"
        },
        "OHiggins": {
            "lat": "-34.5755",
            "long": "-71.0022",
            "confirmed": 67043,
            "recovered": 65284,
            "deaths": 1443,
            "updated": "2021/07/23 11:21:35+00"
        },
        "Tarapaca": {
            "lat": "-19.9232",
            "long": "-69.5132",
            "confirmed": 40067,
            "recovered": 39092,
            "deaths": 768,
            "updated": "2021/07/23 11:21:35+00"
        },
        "Unknown": {
            "lat": "",
            "long": "",
            "confirmed": 51,
            "recovered": 51,
            "deaths": 0,
            "updated": "2021/07/23 11:21:35+00"
        },
        "Valparaiso": {
            "lat": "-33.0472",
            "long": "-71.6127",
            "confirmed": 119458,
            "recovered": 115316,
            "deaths": 3178,
            "updated": "2021/07/23 11:21:35+00"
        }
    },
    "China": {
        "All": {
            "confirmed": 104489,
            "recovered": 98906,
            "deaths": 4848,
            "country": "China",
            "population": 1409517397,
            "sq_km_area": 9572900,
            "life_expectancy": "71.4",
            "elevation_in_meters": "1,840",
            "continent": "Asia",
            "abbreviation": "CN",
            "location": "Eastern Asia",
            "iso": 156,
            "capital_city": "Peking"
        },
        "Anhui": {
            "lat": "31.8257",
            "long": "117.2264",
            "confirmed": 1008,
            "recovered": 1000,
            "deaths": 6,
            "updated": "2021/07/23 11:21:35+00"
        },
        "Beijing": {
            "lat": "40.1824",
            "long": "116.4142",
            "confirmed": 1085,
            "recovered": 1066,
            "deaths": 9,
            "updated": "2021/07/23 11:21:35+00"
        },
        "Chongqing": {
            "lat": "30.0572",
            "long": "107.874",
            "confirmed": 601,
            "recovered": 592,
            "deaths": 6,
            "updated": "2021/07/23 11:21:35+00"
        },
        "Fujian": {
            "lat": "26.0789",
            "long": "117.9874",
            "confirmed": 711,
            "recovered": 670,
            "deaths": 1,
            "updated": "2021/07/23 11:21:35+00"
        },
        "Gansu": {
            "lat": "35.7518",
            "long": "104.2861",
            "confirmed": 197,
            "recovered": 193,
            "deaths": 2,
            "updated": "2021/07/23 11:21:35+00"
        },
        "Guangdong": {
            "lat": "23.3417",
            "long": "113.4244",
            "confirmed": 2834,
            "recovered": 2759,
            "deaths": 8,
            "updated": "2021/07/23 11:21:35+00"
        },
        "Guangxi": {
            "lat": "23.8298",
            "long": "108.7881",
            "confirmed": 277,
            "recovered": 273,
            "deaths": 2,
            "updated": "2021/07/23 11:21:35+00"
        },
        "Guizhou": {
            "lat": "26.8154",
            "long": "106.8748",
            "confirmed": 147,
            "recovered": 145,
            "deaths": 2,
            "updated": "2021/07/23 11:21:35+00"
        },
        "Hainan": {
            "lat": "19.1959",
            "long": "109.7453",
            "confirmed": 188,
            "recovered": 181,
            "deaths": 6,
            "updated": "2021/07/23 11:21:35+00"
        },
        "Hebei": {
            "lat": "37.8957",
            "long": "114.9042",
            "confirmed": 1317,
            "recovered": 1310,
            "deaths": 7,
            "updated": "2021/07/23 11:21:35+00"
        },
        "Heilongjiang": {
            "lat": "47.862",
            "long": "127.7615",
            "confirmed": 1612,
            "recovered": 1599,
            "deaths": 13,
            "updated": "2021/07/23 11:21:35+00"
        },
        "Henan": {
            "lat": "33.882",
            "long": "113.614",
            "confirmed": 1326,
            "recovered": 1291,
            "deaths": 22,
            "updated": "2021/07/23 11:21:35+00"
        },
        "Hong Kong": {
            "lat": "22.3",
            "long": "114.2",
            "confirmed": 11971,
            "recovered": 11690,
            "deaths": 212,
            "updated": "2021/07/23 11:21:35+00"
        },
        "Hubei": {
            "lat": "30.9756",
            "long": "112.2707",
            "confirmed": 68193,
            "recovered": 63662,
            "deaths": 4512,
            "updated": "2021/07/23 11:21:35+00"
        },
        "Hunan": {
            "lat": "27.6104",
            "long": "111.7088",
            "confirmed": 1069,
            "recovered": 1053,
            "deaths": 4,
            "updated": "2021/07/23 11:21:35+00"
        },
        "Inner Mongolia": {
            "lat": "44.0935",
            "long": "113.9448",
            "confirmed": 399,
            "recovered": 392,
            "deaths": 1,
            "updated": "2021/07/23 11:21:35+00"
        },
        "Jiangsu": {
            "lat": "32.9711",
            "long": "119.455",
            "confirmed": 776,
            "recovered": 743,
            "deaths": 0,
            "updated": "2021/07/23 11:21:35+00"
        },
        "Jiangxi": {
            "lat": "27.614",
            "long": "115.7221",
            "confirmed": 937,
            "recovered": 936,
            "deaths": 1,
            "updated": "2021/07/23 11:21:35+00"
        },
        "Jilin": {
            "lat": "43.6661",
            "long": "126.1923",
            "confirmed": 573,
            "recovered": 570,
            "deaths": 3,
            "updated": "2021/07/23 11:21:35+00"
        },
        "Liaoning": {
            "lat": "41.2956",
            "long": "122.6085",
            "confirmed": 431,
            "recovered": 425,
            "deaths": 2,
            "updated": "2021/07/23 11:21:35+00"
        },
        "Macau": {
            "lat": "22.1667",
            "long": "113.55",
            "confirmed": 56,
            "recovered": 53,
            "deaths": 0,
            "updated": "2021/07/23 11:21:35+00"
        },
        "Ningxia": {
            "lat": "37.2692",
            "long": "106.1655",
            "confirmed": 76,
            "recovered": 75,
            "deaths": 0,
            "updated": "2021/07/23 11:21:35+00"
        },
        "Qinghai": {
            "lat": "35.7452",
            "long": "95.9956",
            "confirmed": 18,
            "recovered": 18,
            "deaths": 0,
            "updated": "2021/07/23 11:21:35+00"
        },
        "Shaanxi": {
            "lat": "35.1917",
            "long": "108.8701",
            "confirmed": 655,
            "recovered": 627,
            "deaths": 3,
            "updated": "2021/07/23 11:21:35+00"
        },
        "Shandong": {
            "lat": "36.3427",
            "long": "118.1498",
            "confirmed": 883,
            "recovered": 876,
            "deaths": 7,
            "updated": "2021/07/23 11:21:35+00"
        },
        "Shanghai": {
            "lat": "31.202",
            "long": "121.4491",
            "confirmed": 2281,
            "recovered": 2218,
            "deaths": 7,
            "updated": "2021/07/23 11:21:35+00"
        },
        "Shanxi": {
            "lat": "37.5777",
            "long": "112.2922",
            "confirmed": 253,
            "recovered": 253,
            "deaths": 0,
            "updated": "2021/07/23 11:21:35+00"
        },
        "Sichuan": {
            "lat": "30.6171",
            "long": "102.7103",
            "confirmed": 1134,
            "recovered": 1091,
            "deaths": 3,
            "updated": "2021/07/23 11:21:35+00"
        },
        "Tianjin": {
            "lat": "39.3054",
            "long": "117.323",
            "confirmed": 416,
            "recovered": 396,
            "deaths": 3,
            "updated": "2021/07/23 11:21:35+00"
        },
        "Tibet": {
            "lat": "31.6927",
            "long": "88.0924",
            "confirmed": 1,
            "recovered": 1,
            "deaths": 0,
            "updated": "2021/07/23 11:21:35+00"
        },
        "Unknown": {
            "lat": "",
            "long": "",
            "confirmed": 0,
            "recovered": 6,
            "deaths": 0,
            "updated": "2021/07/23 11:21:35+00"
        },
        "Xinjiang": {
            "lat": "41.1129",
            "long": "85.2401",
            "confirmed": 980,
            "recovered": 977,
            "deaths": 3,
            "updated": "2021/07/23 11:21:35+00"
        },
        "Yunnan": {
            "lat": "24.974",
            "long": "101.487",
            "confirmed": 691,
            "recovered": 392,
            "deaths": 2,
            "updated": "2021/07/23 11:21:35+00"
        },
        "Zhejiang": {
            "lat": "29.1832",
            "long": "120.0934",
            "confirmed": 1393,
            "recovered": 1373,
            "deaths": 1,
            "updated": "2021/07/23 11:21:35+00"
        }
    },
    "Colombia": {
        "All": {
            "confirmed": 4692570,
            "recovered": 4449027,
            "deaths": 117836,
            "country": "Colombia",
            "population": 49065615,
            "sq_km_area": 1138914,
            "life_expectancy": "70.3",
            "elevation_in_meters": 593,
            "continent": "South America",
            "abbreviation": "CO",
            "location": "South America",
            "iso": 170,
            "capital_city": "Santaf"
        },
        "Amazonas": {
            "lat": "-1.4429",
            "long": "-71.5724",
            "confirmed": 6546,
            "recovered": 6236,
            "deaths": 248,
            "updated": "2021/07/23 11:21:35+00"
        },
        "Antioquia": {
            "lat": "7.1986",
            "long": "-75.3412",
            "confirmed": 700164,
            "recovered": 664927,
            "deaths": 14969,
            "updated": "2021/07/23 11:21:35+00"
        },
        "Arauca": {
            "lat": "7.0762",
            "long": "-70.7105",
            "confirmed": 12287,
            "recovered": 11508,
            "deaths": 388,
            "updated": "2021/07/23 11:21:35+00"
        },
        "Atlantico": {
            "lat": "10.6966",
            "long": "-74.8741",
            "confirmed": 304095,
            "recovered": 290410,
            "deaths": 9156,
            "updated": "2021/07/23 11:21:35+00"
        },
        "Bolivar": {
            "lat": "8.6704",
            "long": "-74.03",
            "confirmed": 147824,
            "recovered": 142881,
            "deaths": 2791,
            "updated": "2021/07/23 11:21:35+00"
        },
        "Boyaca": {
            "lat": "5.4545",
            "long": "-73.362",
            "confirmed": 100675,
            "recovered": 95776,
            "deaths": 2381,
            "updated": "2021/07/23 11:21:35+00"
        },
        "Caldas": {
            "lat": "5.2983",
            "long": "-75.2479",
            "confirmed": 96882,
            "recovered": 92444,
            "deaths": 2106,
            "updated": "2021/07/23 11:21:35+00"
        },
        "Capital District": {
            "lat": "4.711",
            "long": "-74.0721",
            "confirmed": 1389729,
            "recovered": 1317269,
            "deaths": 26106,
            "updated": "2021/07/23 11:21:35+00"
        },
        "Caqueta": {
            "lat": "0.8699",
            "long": "-73.8419",
            "confirmed": 21741,
            "recovered": 20370,
            "deaths": 851,
            "updated": "2021/07/23 11:21:35+00"
        },
        "Casanare": {
            "lat": "5.7589",
            "long": "-71.5724",
            "confirmed": 33268,
            "recovered": 31330,
            "deaths": 820,
            "updated": "2021/07/23 11:21:35+00"
        },
        "Cauca": {
            "lat": "2.705",
            "long": "-76.826",
            "confirmed": 49589,
            "recovered": 46351,
            "deaths": 1290,
            "updated": "2021/07/23 11:21:35+00"
        },
        "Cesar": {
            "lat": "9.3373",
            "long": "-73.6536",
            "confirmed": 85352,
            "recovered": 81309,
            "deaths": 2362,
            "updated": "2021/07/23 11:21:35+00"
        },
        "Choco": {
            "lat": "5.2528",
            "long": "-76.826",
            "confirmed": 15691,
            "recovered": 15034,
            "deaths": 378,
            "updated": "2021/07/23 11:21:35+00"
        },
        "Cordoba": {
            "lat": "8.0493",
            "long": "-75.574",
            "confirmed": 96285,
            "recovered": 90144,
            "deaths": 3388,
            "updated": "2021/07/23 11:21:35+00"
        },
        "Cundinamarca": {
            "lat": "5.026",
            "long": "-74.03",
            "confirmed": 251538,
            "recovered": 238979,
            "deaths": 6396,
            "updated": "2021/07/23 11:21:35+00"
        },
        "Guainia": {
            "lat": "2.5854",
            "long": "-68.5247",
            "confirmed": 2204,
            "recovered": 2161,
            "deaths": 28,
            "updated": "2021/07/23 11:21:35+00"
        },
        "Guaviare": {
            "lat": "1.0654",
            "long": "-73.2603",
            "confirmed": 4948,
            "recovered": 4774,
            "deaths": 87,
            "updated": "2021/07/23 11:21:35+00"
        },
        "Huila": {
            "lat": "2.5359",
            "long": "-75.5277",
            "confirmed": 83198,
            "recovered": 77544,
            "deaths": 2802,
            "updated": "2021/07/23 11:21:35+00"
        },
        "La Guajira": {
            "lat": "11.3548",
            "long": "-72.5205",
            "confirmed": 41027,
            "recovered": 39284,
            "deaths": 1287,
            "updated": "2021/07/23 11:21:35+00"
        },
        "Magdalena": {
            "lat": "10.4113",
            "long": "-74.4057",
            "confirmed": 86877,
            "recovered": 82072,
            "deaths": 3129,
            "updated": "2021/07/23 11:21:35+00"
        },
        "Meta": {
            "lat": "3.272",
            "long": "-73.0877",
            "confirmed": 83547,
            "recovered": 79978,
            "deaths": 2026,
            "updated": "2021/07/23 11:21:35+00"
        },
        "Narino": {
            "lat": "1.2892",
            "long": "-77.3579",
            "confirmed": 85076,
            "recovered": 79475,
            "deaths": 2817,
            "updated": "2021/07/23 11:21:35+00"
        },
        "Norte de Santander": {
            "lat": "7.9463",
            "long": "-72.8988",
            "confirmed": 84048,
            "recovered": 77801,
            "deaths": 3872,
            "updated": "2021/07/23 11:21:35+00"
        },
        "Putumayo": {
            "lat": "0.436",
            "long": "-75.5277",
            "confirmed": 14925,
            "recovered": 13920,
            "deaths": 604,
            "updated": "2021/07/23 11:21:35+00"
        },
        "Quindio": {
            "lat": "4.461",
            "long": "-75.6674",
            "confirmed": 53323,
            "recovered": 50752,
            "deaths": 1602,
            "updated": "2021/07/23 11:21:35+00"
        },
        "Risaralda": {
            "lat": "5.3158",
            "long": "-75.9928",
            "confirmed": 83706,
            "recovered": 79728,
            "deaths": 2077,
            "updated": "2021/07/23 11:21:35+00"
        },
        "San Andres y Providencia": {
            "lat": "12.5567",
            "long": "-81.7185",
            "confirmed": 6647,
            "recovered": 6430,
            "deaths": 133,
            "updated": "2021/07/23 11:21:35+00"
        },
        "Santander": {
            "lat": "6.6437",
            "long": "-73.6536",
            "confirmed": 214442,
            "recovered": 202907,
            "deaths": 6826,
            "updated": "2021/07/23 11:21:35+00"
        },
        "Sucre": {
            "lat": "8.814",
            "long": "-74.7233",
            "confirmed": 56324,
            "recovered": 53325,
            "deaths": 1522,
            "updated": "2021/07/23 11:21:35+00"
        },
        "Tolima": {
            "lat": "4.0925",
            "long": "-75.1545",
            "confirmed": 102843,
            "recovered": 97536,
            "deaths": 3342,
            "updated": "2021/07/23 11:21:35+00"
        },
        "Unknown": {
            "lat": "",
            "long": "",
            "confirmed": 0,
            "recovered": 1,
            "deaths": 296,
            "updated": "2021/07/23 11:21:35+00"
        },
        "Valle del Cauca": {
            "lat": "3.8009",
            "long": "-76.6413",
            "confirmed": 373269,
            "recovered": 351970,
            "deaths": 11694,
            "updated": "2021/07/23 11:21:35+00"
        },
        "Vaupes": {
            "lat": "0.8554",
            "long": "-70.812",
            "confirmed": 1714,
            "recovered": 1692,
            "deaths": 17,
            "updated": "2021/07/23 11:21:35+00"
        },
        "Vichada": {
            "lat": "4.4234",
            "long": "-69.2878",
            "confirmed": 2786,
            "recovered": 2709,
            "deaths": 45,
            "updated": "2021/07/23 11:21:35+00"
        }
    },
    "Comoros": {
        "All": {
            "confirmed": 4014,
            "recovered": 3849,
            "deaths": 147,
            "country": "Comoros",
            "population": 813912,
            "sq_km_area": 1862,
            "life_expectancy": 60,
            "elevation_in_meters": null,
            "continent": "Africa",
            "abbreviation": "KM",
            "location": "Eastern Africa",
            "iso": 174,
            "capital_city": "Moroni",
            "lat": "-11.6455",
            "long": "43.3333",
            "updated": "2021/07/23 11:21:35+00"
        }
    },
    "Congo (Brazzaville)": {
        "All": {
            "confirmed": 13050,
            "recovered": 11759,
            "deaths": 176,
            "lat": "-0.228",
            "long": "15.8277",
            "updated": "2021/07/23 11:21:35+00"
        }
    },
    "Congo (Kinshasa)": {
        "All": {
            "confirmed": 47174,
            "recovered": 29389,
            "deaths": 1021,
            "lat": "-4.0383",
            "long": "21.7587",
            "updated": "2021/07/23 11:21:35+00"
        }
    },
    "Costa Rica": {
        "All": {
            "confirmed": 397469,
            "recovered": 321048,
            "deaths": 4933,
            "country": "Costa Rica",
            "population": 4905769,
            "sq_km_area": 51100,
            "life_expectancy": "75.8",
            "elevation_in_meters": 746,
            "continent": "North America",
            "abbreviation": "CR",
            "location": "Central America",
            "iso": 188,
            "capital_city": "San Jos",
            "lat": "9.7489",
            "long": "-83.7534",
            "updated": "2021/07/23 11:21:35+00"
        }
    },
    "Cote d'Ivoire": {
        "All": {
            "confirmed": 49386,
            "recovered": 48655,
            "deaths": 324,
            "country": "Cote d'Ivoire",
            "population": 24294750,
            "sq_km_area": 322463,
            "life_expectancy": "45.2",
            "elevation_in_meters": 250,
            "continent": "Africa",
            "abbreviation": "CI",
            "location": "Western Africa",
            "iso": 384,
            "capital_city": "Yamoussoukro",
            "lat": "7.54",
            "long": "-5.5471",
            "updated": "2021/07/23 11:21:35+00"
        }
    },
    "Croatia": {
        "All": {
            "confirmed": 362129,
            "recovered": 352966,
            "deaths": 8245,
            "country": "Croatia",
            "population": 4189353,
            "sq_km_area": 56538,
            "life_expectancy": "73.7",
            "elevation_in_meters": 331,
            "continent": "Europe",
            "abbreviation": "HR",
            "location": "Southern Europe",
            "iso": 191,
            "capital_city": "Zagreb",
            "lat": "45.1",
            "long": "15.2",
            "updated": "2021/07/23 11:21:35+00"
        }
    },
    "Cuba": {
        "All": {
            "confirmed": 308599,
            "recovered": 270757,
            "deaths": 2137,
            "country": "Cuba",
            "population": 11484636,
            "sq_km_area": 110861,
            "life_expectancy": "76.2",
            "elevation_in_meters": 108,
            "continent": "North America",
            "abbreviation": "CU",
            "location": "Caribbean",
            "iso": 192,
            "capital_city": "La Habana",
            "lat": "21.521757",
            "long": "-77.781167",
            "updated": "2021/07/23 11:21:35+00"
        }
    },
    "Cyprus": {
        "All": {
            "confirmed": 95307,
            "recovered": 39061,
            "deaths": 398,
            "country": "Cyprus",
            "population": 1179551,
            "sq_km_area": 9251,
            "life_expectancy": "76.7",
            "elevation_in_meters": 91,
            "continent": "Asia",
            "abbreviation": "CY",
            "location": "Middle East",
            "iso": 196,
            "capital_city": "Nicosia",
            "lat": "35.1264",
            "long": "33.4299",
            "updated": "2021/07/23 11:21:35+00"
        }
    },
    "Czechia": {
        "All": {
            "confirmed": 1672140,
            "recovered": 1638606,
            "deaths": 30347,
            "country": "Czechia",
            "population": 10618303,
            "sq_km_area": 78866,
            "life_expectancy": "74.5",
            "elevation_in_meters": 433,
            "continent": "Europe",
            "abbreviation": "CZ",
            "location": "Eastern Europe",
            "iso": 203,
            "capital_city": "Praha",
            "lat": "49.8175",
            "long": "15.473",
            "updated": "2021/07/23 11:21:35+00"
        }
    },
    "Denmark": {
        "All": {
            "confirmed": 310463,
            "recovered": 296112,
            "deaths": 2543,
            "country": "Denmark",
            "population": 5733551,
            "sq_km_area": 43094,
            "life_expectancy": "76.5",
            "elevation_in_meters": 34,
            "continent": "Europe",
            "abbreviation": "DK",
            "location": "Nordic Countries",
            "iso": 208,
            "capital_city": "Copenhagen",
            "lat": "56.2639",
            "long": "9.5018",
            "updated": "2021/07/23 11:21:35+00"
        },
        "Faroe Islands": {
            "lat": "61.8926",
            "long": "-6.9118",
            "confirmed": 958,
            "recovered": 877,
            "deaths": 1,
            "updated": "2021/07/23 11:21:35+00"
        },
        "Greenland": {
            "lat": "71.7069",
            "long": "-42.6043",
            "confirmed": 85,
            "recovered": 59,
            "deaths": 0,
            "updated": "2021/07/23 11:21:35+00"
        }
    },
    "Diamond Princess": {
        "All": {
            "confirmed": 712,
            "recovered": 699,
            "deaths": 13,
            "lat": "",
            "long": "",
            "updated": "2021/07/23 11:21:35+00"
        }
    },
    "Djibouti": {
        "All": {
            "confirmed": 11628,
            "recovered": 11466,
            "deaths": 155,
            "country": "Djibouti",
            "population": 956985,
            "sq_km_area": 23200,
            "life_expectancy": "50.8",
            "elevation_in_meters": 430,
            "continent": "Africa",
            "abbreviation": "DJ",
            "location": "Eastern Africa",
            "iso": 262,
            "capital_city": "Djibouti",
            "lat": "11.8251",
            "long": "42.5903",
            "updated": "2021/07/23 11:21:35+00"
        }
    },
    "Dominica": {
        "All": {
            "confirmed": 209,
            "recovered": 196,
            "deaths": 0,
            "country": "Dominica",
            "population": 73925,
            "sq_km_area": 751,
            "life_expectancy": "73.4",
            "elevation_in_meters": null,
            "continent": "North America",
            "abbreviation": "DM",
            "location": "Caribbean",
            "iso": 212,
            "capital_city": "Roseau",
            "lat": "15.415",
            "long": "-61.371",
            "updated": "2021/07/23 11:21:35+00"
        }
    },
    "Dominican Republic": {
        "All": {
            "confirmed": 338902,
            "recovered": 287607,
            "deaths": 3931,
            "country": "Dominican Republic",
            "population": 10766998,
            "sq_km_area": 48511,
            "life_expectancy": "73.2",
            "elevation_in_meters": 424,
            "continent": "North America",
            "abbreviation": "DO",
            "location": "Caribbean",
            "iso": 214,
            "capital_city": "Santo Domingo de Guzm",
            "lat": "18.7357",
            "long": "-70.1627",
            "updated": "2021/07/23 11:21:35+00"
        }
    },
    "Ecuador": {
        "All": {
            "confirmed": 479784,
            "recovered": 443880,
            "deaths": 30777,
            "country": "Ecuador",
            "population": 16624858,
            "sq_km_area": 283561,
            "life_expectancy": "71.1",
            "elevation_in_meters": "1,117",
            "continent": "South America",
            "abbreviation": "EC",
            "location": "South America",
            "iso": 218,
            "capital_city": "Quito",
            "lat": "-1.8312",
            "long": "-78.1834",
            "updated": "2021/07/23 11:21:35+00"
        }
    },
    "Egypt": {
        "All": {
            "confirmed": 283906,
            "recovered": 226535,
            "deaths": 16470,
            "country": "Egypt",
            "population": 97553151,
            "sq_km_area": 1001449,
            "life_expectancy": "63.3",
            "elevation_in_meters": 321,
            "continent": "Africa",
            "abbreviation": "EG",
            "location": "Northern Africa",
            "iso": 818,
            "capital_city": "Cairo",
            "lat": "26.820553",
            "long": "30.802498",
            "updated": "2021/07/23 11:21:35+00"
        }
    },
    "El Salvador": {
        "All": {
            "confirmed": 84144,
            "recovered": 75608,
            "deaths": 2529,
            "country": "El Salvador",
            "population": 6377853,
            "sq_km_area": 21041,
            "life_expectancy": "69.7",
            "elevation_in_meters": 442,
            "continent": "North America",
            "abbreviation": "SV",
            "location": "Central America",
            "iso": 222,
            "capital_city": "San Salvador",
            "lat": "13.7942",
            "long": "-88.8965",
            "updated": "2021/07/23 11:21:35+00"
        }
    },
    "Equatorial Guinea": {
        "All": {
            "confirmed": 8863,
            "recovered": 8637,
            "deaths": 123,
            "country": "Equatorial Guinea",
            "population": 1267689,
            "sq_km_area": 28051,
            "life_expectancy": "53.6",
            "elevation_in_meters": 577,
            "continent": "Africa",
            "abbreviation": "GQ",
            "location": "Central Africa",
            "iso": 226,
            "capital_city": "Malabo",
            "lat": "1.6508",
            "long": "10.2679",
            "updated": "2021/07/23 11:21:35+00"
        }
    },
    "Eritrea": {
        "All": {
            "confirmed": 6480,
            "recovered": 6201,
            "deaths": 32,
            "country": "Eritrea",
            "population": 5068831,
            "sq_km_area": 117600,
            "life_expectancy": "55.8",
            "elevation_in_meters": 853,
            "continent": "Africa",
            "abbreviation": "ER",
            "location": "Eastern Africa",
            "iso": 232,
            "capital_city": "Asmara",
            "lat": "15.1794",
            "long": "39.7823",
            "updated": "2021/07/23 11:21:35+00"
        }
    },
    "Estonia": {
        "All": {
            "confirmed": 132262,
            "recovered": 128314,
            "deaths": 1271,
            "country": "Estonia",
            "population": 1309632,
            "sq_km_area": 45227,
            "life_expectancy": "69.5",
            "elevation_in_meters": 61,
            "continent": "Europe",
            "abbreviation": "EE",
            "location": "Baltic Countries",
            "iso": 233,
            "capital_city": "Tallinn",
            "lat": "58.5953",
            "long": "25.0136",
            "updated": "2021/07/23 11:21:35+00"
        }
    },
    "Eswatini": {
        "All": {
            "confirmed": 21880,
            "recovered": 19392,
            "deaths": 735,
            "lat": "-26.5225",
            "long": "31.4659",
            "updated": "2021/07/23 11:21:35+00"
        }
    },
    "Ethiopia": {
        "All": {
            "confirmed": 278105,
            "recovered": 262692,
            "deaths": 4363,
            "country": "Ethiopia",
            "population": 104957438,
            "sq_km_area": 1104300,
            "life_expectancy": "45.2",
            "elevation_in_meters": "1,330",
            "continent": "Africa",
            "abbreviation": "ET",
            "location": "Eastern Africa",
            "iso": 231,
            "capital_city": "Addis Abeba",
            "lat": "9.145",
            "long": "40.4897",
            "updated": "2021/07/23 11:21:35+00"
        }
    },
    "Fiji": {
        "All": {
            "confirmed": 21361,
            "recovered": 4729,
            "deaths": 161,
            "country": "Fiji",
            "population": 905502,
            "sq_km_area": 18274,
            "life_expectancy": "67.9",
            "elevation_in_meters": null,
            "continent": "Oceania",
            "abbreviation": "FJ",
            "location": "Melanesia",
            "iso": null,
            "capital_city": "Suva",
            "lat": "-17.7134",
            "long": "178.065",
            "updated": "2021/07/23 11:21:35+00"
        }
    },
    "Finland": {
        "All": {
            "confirmed": 102042,
            "recovered": 46000,
            "deaths": 979,
            "country": "Finland",
            "population": 5523231,
            "sq_km_area": 338145,
            "life_expectancy": "77.4",
            "elevation_in_meters": 164,
            "continent": "Europe",
            "abbreviation": "FI",
            "location": "Nordic Countries",
            "iso": 246,
            "capital_city": "Helsinki [Helsingfors]",
            "lat": "61.92411",
            "long": "25.748151",
            "updated": "2021/07/23 11:21:35+00"
        }
    },
    "France": {
        "All": {
            "confirmed": 5996060,
            "recovered": 410035,
            "deaths": 111749,
            "country": "France",
            "population": 64979548,
            "sq_km_area": 551500,
            "life_expectancy": "78.8",
            "elevation_in_meters": 375,
            "continent": "Europe",
            "abbreviation": "FR",
            "location": "Western Europe",
            "iso": 250,
            "capital_city": "Paris",
            "lat": "46.2276",
            "long": "2.2137",
            "updated": "2021/07/23 11:21:35+00"
        },
        "French Guiana": {
            "lat": "4",
            "long": "-53",
            "confirmed": 29285,
            "recovered": 9995,
            "deaths": 169,
            "updated": "2021/07/23 11:21:35+00"
        },
        "French Polynesia": {
            "lat": "-17.6797",
            "long": "-149.4068",
            "confirmed": 19234,
            "recovered": 18945,
            "deaths": 145,
            "updated": "2021/07/23 11:21:35+00"
        },
        "Guadeloupe": {
            "lat": "16.265",
            "long": "-61.551",
            "confirmed": 17982,
            "recovered": 2250,
            "deaths": 278,
            "updated": "2021/07/23 11:21:35+00"
        },
        "Martinique": {
            "lat": "14.6415",
            "long": "-61.0242",
            "confirmed": 14964,
            "recovered": 104,
            "deaths": 102,
            "updated": "2021/07/23 11:21:35+00"
        },
        "Mayotte": {
            "lat": "-12.8275",
            "long": "45.166244",
            "confirmed": 19460,
            "recovered": 2964,
            "deaths": 174,
            "updated": "2021/07/23 11:21:35+00"
        },
        "New Caledonia": {
            "lat": "-20.904305",
            "long": "165.618042",
            "confirmed": 131,
            "recovered": 58,
            "deaths": 0,
            "updated": "2021/07/23 11:21:35+00"
        },
        "Reunion": {
            "lat": "-21.1151",
            "long": "55.5364",
            "confirmed": 34615,
            "recovered": 32036,
            "deaths": 266,
            "updated": "2021/07/23 11:21:35+00"
        },
        "Saint Barthelemy": {
            "lat": "17.9",
            "long": "-62.8333",
            "confirmed": 1005,
            "recovered": 462,
            "deaths": 1,
            "updated": "2021/07/23 11:21:35+00"
        },
        "Saint Pierre and Miquelon": {
            "lat": "46.8852",
            "long": "-56.3159",
            "confirmed": 26,
            "recovered": 26,
            "deaths": 0,
            "updated": "2021/07/23 11:21:35+00"
        },
        "St Martin": {
            "lat": "18.0708",
            "long": "-63.0501",
            "confirmed": 2481,
            "recovered": 1399,
            "deaths": 38,
            "updated": "2021/07/23 11:21:35+00"
        },
        "Wallis and Futuna": {
            "lat": "-14.2938",
            "long": "-178.1165",
            "confirmed": 445,
            "recovered": 438,
            "deaths": 7,
            "updated": "2021/07/23 11:21:35+00"
        }
    },
    "Gabon": {
        "All": {
            "confirmed": 25309,
            "recovered": 25050,
            "deaths": 163,
            "country": "Gabon",
            "population": 2025137,
            "sq_km_area": 267668,
            "life_expectancy": "50.1",
            "elevation_in_meters": 377,
            "continent": "Africa",
            "abbreviation": "GA",
            "location": "Central Africa",
            "iso": 266,
            "capital_city": "Libreville",
            "lat": "-0.8037",
            "long": "11.6094",
            "updated": "2021/07/23 11:21:35+00"
        }
    },
    "Gambia": {
        "All": {
            "confirmed": 7161,
            "recovered": 6080,
            "deaths": 197,
            "country": "Gambia",
            "population": 2100568,
            "sq_km_area": 11295,
            "life_expectancy": "53.2",
            "elevation_in_meters": 34,
            "continent": "Africa",
            "abbreviation": "GM",
            "location": "Western Africa",
            "iso": 270,
            "capital_city": "Banjul",
            "lat": "13.4432",
            "long": "-15.3101",
            "updated": "2021/07/23 11:21:35+00"
        }
    },
    "Georgia": {
        "All": {
            "confirmed": 398081,
            "recovered": 370565,
            "deaths": 5656,
            "country": "Georgia",
            "population": 3912061,
            "sq_km_area": 69700,
            "life_expectancy": "64.5",
            "elevation_in_meters": "1,432",
            "continent": "Asia",
            "abbreviation": "GE",
            "location": "Middle East",
            "iso": 268,
            "capital_city": "Tbilisi",
            "lat": "42.3154",
            "long": "43.3569",
            "updated": "2021/07/23 11:21:35+00"
        }
    },
    "Germany": {
        "All": {
            "confirmed": 3758631,
            "recovered": 3642010,
            "deaths": 91505,
            "country": "Germany",
            "population": 82114224,
            "sq_km_area": 357022,
            "life_expectancy": "77.4",
            "elevation_in_meters": 263,
            "continent": "Europe",
            "abbreviation": "DE",
            "location": "Western Europe",
            "iso": 276,
            "capital_city": "Berlin"
        },
        "Baden-Wurttemberg": {
            "lat": "48.6616",
            "long": "9.3501",
            "confirmed": 503809,
            "recovered": 490900,
            "deaths": 10370,
            "updated": "2021/07/23 11:21:35+00"
        },
        "Bayern": {
            "lat": "48.7904",
            "long": "11.4979",
            "confirmed": 651531,
            "recovered": 632800,
            "deaths": 15324,
            "updated": "2021/07/23 11:21:35+00"
        },
        "Berlin": {
            "lat": "52.52",
            "long": "13.405",
            "confirmed": 181537,
            "recovered": 176700,
            "deaths": 3577,
            "updated": "2021/07/23 11:21:35+00"
        },
        "Brandenburg": {
            "lat": "52.4125",
            "long": "12.5316",
            "confirmed": 109011,
            "recovered": 104800,
            "deaths": 3815,
            "updated": "2021/07/23 11:21:35+00"
        },
        "Bremen": {
            "lat": "53.0793",
            "long": "8.8017",
            "confirmed": 27705,
            "recovered": 27030,
            "deaths": 492,
            "updated": "2021/07/23 11:21:35+00"
        },
        "Hamburg": {
            "lat": "53.5511",
            "long": "9.9937",
            "confirmed": 78282,
            "recovered": 75900,
            "deaths": 1607,
            "updated": "2021/07/23 11:21:35+00"
        },
        "Hessen": {
            "lat": "50.6521",
            "long": "9.1624",
            "confirmed": 293393,
            "recovered": 284000,
            "deaths": 7573,
            "updated": "2021/07/23 11:21:35+00"
        },
        "Mecklenburg-Vorpommern": {
            "lat": "53.6127",
            "long": "12.4296",
            "confirmed": 44271,
            "recovered": 42960,
            "deaths": 1175,
            "updated": "2021/07/23 11:21:35+00"
        },
        "Niedersachsen": {
            "lat": "52.6367",
            "long": "9.8451",
            "confirmed": 263404,
            "recovered": 256000,
            "deaths": 5807,
            "updated": "2021/07/23 11:21:35+00"
        },
        "Nordrhein-Westfalen": {
            "lat": "51.4332",
            "long": "7.6616",
            "confirmed": 822225,
            "recovered": 800500,
            "deaths": 17268,
            "updated": "2021/07/23 11:21:35+00"
        },
        "Rheinland-Pfalz": {
            "lat": "50.1183",
            "long": "7.309",
            "confirmed": 156610,
            "recovered": 151700,
            "deaths": 3897,
            "updated": "2021/07/23 11:21:35+00"
        },
        "Saarland": {
            "lat": "49.3964",
            "long": "7.023",
            "confirmed": 41846,
            "recovered": 40580,
            "deaths": 1029,
            "updated": "2021/07/23 11:21:35+00"
        },
        "Sachsen": {
            "lat": "51.1045",
            "long": "13.2017",
            "confirmed": 286310,
            "recovered": 275700,
            "deaths": 10128,
            "updated": "2021/07/23 11:21:35+00"
        },
        "Sachsen-Anhalt": {
            "lat": "51.9503",
            "long": "11.6923",
            "confirmed": 99441,
            "recovered": 95850,
            "deaths": 3453,
            "updated": "2021/07/23 11:21:35+00"
        },
        "Schleswig-Holstein": {
            "lat": "54.2194",
            "long": "9.6961",
            "confirmed": 64567,
            "recovered": 62290,
            "deaths": 1628,
            "updated": "2021/07/23 11:21:35+00"
        },
        "Thuringen": {
            "lat": "51.011",
            "long": "10.8453",
            "confirmed": 129025,
            "recovered": 124300,
            "deaths": 4362,
            "updated": "2021/07/23 11:21:35+00"
        },
        "Unknown": {
            "lat": "",
            "long": "",
            "confirmed": 5664,
            "recovered": 0,
            "deaths": 0,
            "updated": "2021/07/23 11:21:35+00"
        }
    },
    "Ghana": {
        "All": {
            "confirmed": 100250,
            "recovered": 95871,
            "deaths": 819,
            "country": "Ghana",
            "population": 28833629,
            "sq_km_area": 238533,
            "life_expectancy": "57.4",
            "elevation_in_meters": 190,
            "continent": "Africa",
            "abbreviation": "GH",
            "location": "Western Africa",
            "iso": 288,
            "capital_city": "Accra",
            "lat": "7.9465",
            "long": "-1.0232",
            "updated": "2021/07/23 11:21:35+00"
        }
    },
    "Greece": {
        "All": {
            "confirmed": 469042,
            "recovered": 93764,
            "deaths": 12851,
            "country": "Greece",
            "population": 11159773,
            "sq_km_area": 131626,
            "life_expectancy": "78.4",
            "elevation_in_meters": 498,
            "continent": "Europe",
            "abbreviation": "GR",
            "location": "Southern Europe",
            "iso": 300,
            "capital_city": "Athenai",
            "lat": "39.0742",
            "long": "21.8243",
            "updated": "2021/07/23 11:21:35+00"
        }
    },
    "Grenada": {
        "All": {
            "confirmed": 164,
            "recovered": 161,
            "deaths": 1,
            "country": "Grenada",
            "population": 107825,
            "sq_km_area": 344,
            "life_expectancy": "64.5",
            "elevation_in_meters": null,
            "continent": "North America",
            "abbreviation": "GD",
            "location": "Caribbean",
            "iso": 308,
            "capital_city": "Saint George's",
            "lat": "12.1165",
            "long": "-61.679",
            "updated": "2021/07/23 11:21:35+00"
        }
    },
    "Guatemala": {
        "All": {
            "confirmed": 344221,
            "recovered": 299752,
            "deaths": 10029,
            "country": "Guatemala",
            "population": 16913503,
            "sq_km_area": 108889,
            "life_expectancy": "66.2",
            "elevation_in_meters": 759,
            "continent": "North America",
            "abbreviation": "GT",
            "location": "Central America",
            "iso": 320,
            "capital_city": "Ciudad de Guatemala",
            "lat": "15.7835",
            "long": "-90.2308",
            "updated": "2021/07/23 11:21:35+00"
        }
    },
    "Guinea": {
        "All": {
            "confirmed": 24823,
            "recovered": 23719,
            "deaths": 195,
            "country": "Guinea",
            "population": 12717176,
            "sq_km_area": 245857,
            "life_expectancy": "45.6",
            "elevation_in_meters": 472,
            "continent": "Africa",
            "abbreviation": "GN",
            "location": "Western Africa",
            "iso": 324,
            "capital_city": "Conakry",
            "lat": "9.9456",
            "long": "-9.6966",
            "updated": "2021/07/23 11:21:35+00"
        }
    },
    "Guinea-Bissau": {
        "All": {
            "confirmed": 4117,
            "recovered": 3756,
            "deaths": 74,
            "country": "Guinea-Bissau",
            "population": 1861283,
            "sq_km_area": 36125,
            "life_expectancy": 49,
            "elevation_in_meters": 70,
            "continent": "Africa",
            "abbreviation": "GW",
            "location": "Western Africa",
            "iso": 624,
            "capital_city": "Bissau",
            "lat": "11.8037",
            "long": "-15.1804",
            "updated": "2021/07/23 11:21:35+00"
        }
    },
    "Guyana": {
        "All": {
            "confirmed": 21733,
            "recovered": 20009,
            "deaths": 515,
            "country": "Guyana",
            "population": 777859,
            "sq_km_area": 214969,
            "life_expectancy": 64,
            "elevation_in_meters": 207,
            "continent": "South America",
            "abbreviation": "GY",
            "location": "South America",
            "iso": 328,
            "capital_city": "Georgetown",
            "lat": "4.860416",
            "long": "-58.93018",
            "updated": "2021/07/23 11:21:35+00"
        }
    },
    "Haiti": {
        "All": {
            "confirmed": 19627,
            "recovered": 12961,
            "deaths": 512,
            "country": "Haiti",
            "population": 10981229,
            "sq_km_area": 27750,
            "life_expectancy": "49.2",
            "elevation_in_meters": 470,
            "continent": "North America",
            "abbreviation": "HT",
            "location": "Caribbean",
            "iso": 332,
            "capital_city": "Port-au-Prince",
            "lat": "18.9712",
            "long": "-72.2852",
            "updated": "2021/07/23 11:21:35+00"
        }
    },
    "Holy See": {
        "All": {
            "confirmed": 27,
            "recovered": 27,
            "deaths": 0,
            "country": "Holy See",
            "population": 1000,
            "sq_km_area": 0.4,
            "life_expectancy": null,
            "elevation_in_meters": null,
            "continent": "Europe",
            "abbreviation": "VA",
            "location": "Southern Europe",
            "iso": null,
            "capital_city": "Citt",
            "lat": "41.9029",
            "long": "12.4534",
            "updated": "2021/07/23 11:21:35+00"
        }
    },
    "Honduras": {
        "All": {
            "confirmed": 285375,
            "recovered": 97200,
            "deaths": 7558,
            "country": "Honduras",
            "population": 9265067,
            "sq_km_area": 112088,
            "life_expectancy": "69.9",
            "elevation_in_meters": 684,
            "continent": "North America",
            "abbreviation": "HN",
            "location": "Central America",
            "iso": 340,
            "capital_city": "Tegucigalpa",
            "lat": "15.2",
            "long": "-86.2419",
            "updated": "2021/07/23 11:21:35+00"
        }
    },
    "Hungary": {
        "All": {
            "confirmed": 809101,
            "recovered": 745277,
            "deaths": 30020,
            "country": "Hungary",
            "population": 9721559,
            "sq_km_area": 93030,
            "life_expectancy": "71.4",
            "elevation_in_meters": 143,
            "continent": "Europe",
            "abbreviation": "HU",
            "location": "Eastern Europe",
            "iso": 348,
            "capital_city": "Budapest",
            "lat": "47.1625",
            "long": "19.5033",
            "updated": "2021/07/23 11:21:35+00"
        }
    },
    "Iceland": {
        "All": {
            "confirmed": 6967,
            "recovered": 6652,
            "deaths": 30,
            "country": "Iceland",
            "population": 335025,
            "sq_km_area": 103000,
            "life_expectancy": "79.4",
            "elevation_in_meters": 557,
            "continent": "Europe",
            "abbreviation": "IS",
            "location": "Nordic Countries",
            "iso": 352,
            "capital_city": "Reykjav",
            "lat": "64.9631",
            "long": "-19.0208",
            "updated": "2021/07/23 11:21:35+00"
        }
    },
    "India": {
        "All": {
            "confirmed": 31293062,
            "recovered": 30468079,
            "deaths": 419470,
            "country": "India",
            "population": 1339180127,
            "sq_km_area": 3287263,
            "life_expectancy": "62.5",
            "elevation_in_meters": 160,
            "continent": "Asia",
            "abbreviation": "IN",
            "location": "Southern and Central Asia",
            "iso": 356,
            "capital_city": "New Delhi"
        },
        "Andaman and Nicobar Islands": {
            "lat": "11.225999",
            "long": "92.968178",
            "confirmed": 7525,
            "recovered": 7377,
            "deaths": 129,
            "updated": "2021/07/23 11:21:35+00"
        },
        "Andhra Pradesh": {
            "lat": "15.9129",
            "long": "79.74",
            "confirmed": 1948592,
            "recovered": 1911812,
            "deaths": 13209,
            "updated": "2021/07/23 11:21:35+00"
        },
        "Arunachal Pradesh": {
            "lat": "27.768456",
            "long": "96.384277",
            "confirmed": 44708,
            "recovered": 40102,
            "deaths": 208,
            "updated": "2021/07/23 11:21:35+00"
        },
        "Assam": {
            "lat": "26.357149",
            "long": "92.830441",
            "confirmed": 554221,
            "recovered": 532940,
            "deaths": 5076,
            "updated": "2021/07/23 11:21:35+00"
        },
        "Bihar": {
            "lat": "25.679658",
            "long": "85.60484",
            "confirmed": 724230,
            "recovered": 713998,
            "deaths": 9635,
            "updated": "2021/07/23 11:21:35+00"
        },
        "Chandigarh": {
            "lat": "30.733839",
            "long": "76.768278",
            "confirmed": 61916,
            "recovered": 61073,
            "deaths": 809,
            "updated": "2021/07/23 11:21:35+00"
        },
        "Chhattisgarh": {
            "lat": "21.264705",
            "long": "82.035366",
            "confirmed": 1000763,
            "recovered": 984015,
            "deaths": 13507,
            "updated": "2021/07/23 11:21:35+00"
        },
        "Dadra and Nagar Haveli and Daman and Diu": {
            "lat": "20.194742",
            "long": "73.080901",
            "confirmed": 10624,
            "recovered": 10584,
            "deaths": 4,
            "updated": "2021/07/23 11:21:35+00"
        },
        "Delhi": {
            "lat": "28.646519",
            "long": "77.10898",
            "confirmed": 1435720,
            "recovered": 1410095,
            "deaths": 25040,
            "updated": "2021/07/23 11:21:35+00"
        },
        "Goa": {
            "lat": "15.359682",
            "long": "74.057396",
            "confirmed": 170199,
            "recovered": 165700,
            "deaths": 3123,
            "updated": "2021/07/23 11:21:35+00"
        },
        "Gujarat": {
            "lat": "22.694884",
            "long": "71.590923",
            "confirmed": 824608,
            "recovered": 814162,
            "deaths": 10076,
            "updated": "2021/07/23 11:21:35+00"
        },
        "Haryana": {
            "lat": "29.20004",
            "long": "76.332824",
            "confirmed": 769665,
            "recovered": 759287,
            "deaths": 9613,
            "updated": "2021/07/23 11:21:35+00"
        },
        "Himachal Pradesh": {
            "lat": "31.927213",
            "long": "77.233081",
            "confirmed": 204800,
            "recovered": 200356,
            "deaths": 3509,
            "updated": "2021/07/23 11:21:35+00"
        },
        "Jammu and Kashmir": {
            "lat": "33.75943",
            "long": "76.612638",
            "confirmed": 320340,
            "recovered": 314454,
            "deaths": 4373,
            "updated": "2021/07/23 11:21:35+00"
        },
        "Jharkhand": {
            "lat": "23.654536",
            "long": "85.557631",
            "confirmed": 346846,
            "recovered": 341419,
            "deaths": 5122,
            "updated": "2021/07/23 11:21:35+00"
        },
        "Karnataka": {
            "lat": "14.70518",
            "long": "76.166436",
            "confirmed": 2889994,
            "recovered": 2828983,
            "deaths": 36293,
            "updated": "2021/07/23 11:21:35+00"
        },
        "Kerala": {
            "lat": "10.450898",
            "long": "76.405749",
            "confirmed": 3218015,
            "recovered": 3072895,
            "deaths": 15739,
            "updated": "2021/07/23 11:21:35+00"
        },
        "Ladakh": {
            "lat": "34.1526",
            "long": "77.5771",
            "confirmed": 20284,
            "recovered": 19995,
            "deaths": 206,
            "updated": "2021/07/23 11:21:35+00"
        },
        "Lakshadweep": {
            "lat": "13.6999972",
            "long": "72.1833326",
            "confirmed": 10100,
            "recovered": 9984,
            "deaths": 49,
            "updated": "2021/07/23 11:21:35+00"
        },
        "Madhya Pradesh": {
            "lat": "23.541513",
            "long": "78.289633",
            "confirmed": 791721,
            "recovered": 781024,
            "deaths": 10512,
            "updated": "2021/07/23 11:21:35+00"
        },
        "Maharashtra": {
            "lat": "19.449759",
            "long": "76.108221",
            "confirmed": 6245057,
            "recovered": 6016506,
            "deaths": 131038,
            "updated": "2021/07/23 11:21:35+00"
        },
        "Manipur": {
            "lat": "24.738975",
            "long": "93.882541",
            "confirmed": 88978,
            "recovered": 77147,
            "deaths": 1436,
            "updated": "2021/07/23 11:21:35+00"
        },
        "Meghalaya": {
            "lat": "25.536934",
            "long": "91.278882",
            "confirmed": 59346,
            "recovered": 53945,
            "deaths": 988,
            "updated": "2021/07/23 11:21:35+00"
        },
        "Mizoram": {
            "lat": "23.309381",
            "long": "92.83822",
            "confirmed": 30492,
            "recovered": 22617,
            "deaths": 131,
            "updated": "2021/07/23 11:21:35+00"
        },
        "Nagaland": {
            "lat": "26.06702",
            "long": "94.470302",
            "confirmed": 27024,
            "recovered": 25251,
            "deaths": 536,
            "updated": "2021/07/23 11:21:35+00"
        },
        "Odisha": {
            "lat": "20.505428",
            "long": "84.418059",
            "confirmed": 961934,
            "recovered": 939160,
            "deaths": 5308,
            "updated": "2021/07/23 11:21:35+00"
        },
        "Puducherry": {
            "lat": "11.882658",
            "long": "78.86498",
            "confirmed": 120003,
            "recovered": 117265,
            "deaths": 1783,
            "updated": "2021/07/23 11:21:35+00"
        },
        "Punjab": {
            "lat": "30.841465",
            "long": "75.40879",
            "confirmed": 598590,
            "recovered": 581529,
            "deaths": 16250,
            "updated": "2021/07/23 11:21:35+00"
        },
        "Rajasthan": {
            "lat": "26.583423",
            "long": "73.847973",
            "confirmed": 953462,
            "recovered": 944150,
            "deaths": 8952,
            "updated": "2021/07/23 11:21:35+00"
        },
        "Sikkim": {
            "lat": "27.571671",
            "long": "88.472712",
            "confirmed": 24341,
            "recovered": 21294,
            "deaths": 328,
            "updated": "2021/07/23 11:21:35+00"
        },
        "Tamil Nadu": {
            "lat": "11.006091",
            "long": "78.400624",
            "confirmed": 2543040,
            "recovered": 2483676,
            "deaths": 33838,
            "updated": "2021/07/23 11:21:35+00"
        },
        "Telangana": {
            "lat": "18.1124",
            "long": "79.0193",
            "confirmed": 639369,
            "recovered": 625738,
            "deaths": 3774,
            "updated": "2021/07/23 11:21:35+00"
        },
        "Tripura": {
            "lat": "23.746783",
            "long": "91.743565",
            "confirmed": 75608,
            "recovered": 70623,
            "deaths": 734,
            "updated": "2021/07/23 11:21:35+00"
        },
        "Unknown": {
            "lat": "",
            "long": "",
            "confirmed": 0,
            "recovered": 0,
            "deaths": 0,
            "updated": "2021/07/23 11:21:35+00"
        },
        "Uttar Pradesh": {
            "lat": "26.925425",
            "long": "80.560982",
            "confirmed": 1708057,
            "recovered": 1684286,
            "deaths": 22743,
            "updated": "2021/07/23 11:21:35+00"
        },
        "Uttarakhand": {
            "lat": "30.156447",
            "long": "79.197608",
            "confirmed": 341629,
            "recovered": 333621,
            "deaths": 7359,
            "updated": "2021/07/23 11:21:35+00"
        },
        "West Bengal": {
            "lat": "23.814082",
            "long": "87.979803",
            "confirmed": 1521261,
            "recovered": 1491016,
            "deaths": 18040,
            "updated": "2021/07/23 11:21:35+00"
        }
    },
    "Indonesia": {
        "All": {
            "confirmed": 3082410,
            "recovered": 2431911,
            "deaths": 80598,
            "country": "Indonesia",
            "population": 263991379,
            "sq_km_area": 1904569,
            "life_expectancy": "70.1",
            "elevation_in_meters": 367,
            "continent": "Asia",
            "abbreviation": "ID",
            "location": "Southeast Asia",
            "iso": 360,
            "capital_city": "Jakarta",
            "lat": "-0.7893",
            "long": "113.9213",
            "updated": "2021/07/23 11:21:35+00"
        }
    },
    "Iran": {
        "All": {
            "confirmed": 3623840,
            "recovered": 3204136,
            "deaths": 88063,
            "country": "Iran",
            "population": 81162788,
            "sq_km_area": 1648195,
            "life_expectancy": "69.7",
            "elevation_in_meters": "1,305",
            "continent": "Asia",
            "abbreviation": "IR",
            "location": "Southern and Central Asia",
            "iso": 364,
            "capital_city": "Tehran",
            "lat": "32.427908",
            "long": "53.688046",
            "updated": "2021/07/23 11:21:35+00"
        }
    },
    "Iraq": {
        "All": {
            "confirmed": 1526943,
            "recovered": 1386331,
            "deaths": 18101,
            "country": "Iraq",
            "population": 38274618,
            "sq_km_area": 438317,
            "life_expectancy": "66.5",
            "elevation_in_meters": 312,
            "continent": "Asia",
            "abbreviation": "IQ",
            "location": "Middle East",
            "iso": 368,
            "capital_city": "Baghdad",
            "lat": "33.223191",
            "long": "43.679291",
            "updated": "2021/07/23 11:21:35+00"
        }
    },
    "Ireland": {
        "All": {
            "confirmed": 289139,
            "recovered": 23364,
            "deaths": 5026,
            "country": "Ireland",
            "population": 4761657,
            "sq_km_area": 70273,
            "life_expectancy": "76.8",
            "elevation_in_meters": 118,
            "continent": "Europe",
            "abbreviation": "IE",
            "location": "British Isles",
            "iso": 372,
            "capital_city": "Dublin",
            "lat": "53.1424",
            "long": "-7.6921",
            "updated": "2021/07/23 11:21:35+00"
        }
    },
    "Israel": {
        "All": {
            "confirmed": 857554,
            "recovered": 840801,
            "deaths": 6457,
            "country": "Israel",
            "population": 8321570,
            "sq_km_area": 21056,
            "life_expectancy": "78.6",
            "elevation_in_meters": 508,
            "continent": "Asia",
            "abbreviation": "IL",
            "location": "Middle East",
            "iso": 376,
            "capital_city": "Jerusalem",
            "lat": "31.046051",
            "long": "34.851612",
            "updated": "2021/07/23 11:21:35+00"
        }
    },
    "Italy": {
        "All": {
            "confirmed": 4302393,
            "recovered": 4119607,
            "deaths": 127920,
            "country": "Italy",
            "population": 59359900,
            "sq_km_area": 301316,
            "life_expectancy": 79,
            "elevation_in_meters": 538,
            "continent": "Europe",
            "abbreviation": "IT",
            "location": "Southern Europe",
            "iso": 380,
            "capital_city": "Roma"
        },